City_ID,City,Lat,Lng,Max Temp,Humidity,Cloudiness,Wind Speed,Country,Date
0,coahuayana de hidalgo,18.7,-103.6583,27.62,82,71,1.62,MX,1697381475
1,longyearbyen,78.2186,15.6401,-0.09,74,75,11.32,SJ,1697381476
2,karratha,-20.7377,116.8463,27.75,65,12,2.67,AU,1697381476
3,keflavik,64.0049,-22.5624,8.95,93,75,6.69,IS,1697381476
4,iqaluit,63.7506,-68.5145,-0.15,86,100,3.6,CA,1697381477
5,diyarbakir,37.9158,40.2189,22.99,33,75,2.57,TR,1697381477
6,linxia chengguanzhen,35.6003,103.2064,10.52,47,0,1.55,CN,1697381478
7,bethel,41.3712,-73.414,12.53,72,75,4.63,US,1697381479
8,bandon,51.7469,-8.7425,10.77,74,100,2.78,IE,1697381479
9,turkeli,41.9476,34.3386,18.9,71,99,0.95,TR,1697381479
10,atafu village,-8.5421,-172.5159,28.38,74,71,9.39,TK,1697381479
11,vorgashor,67.5833,63.95,-1.62,87,100,3.29,RU,1697381480
12,happy valley-goose bay,53.3168,-60.3315,9.17,87,100,9.77,CA,1697381480
13,talara,-4.5772,-81.2719,24.42,69,0,5.14,PE,1697381480
14,west island,-12.1568,96.8225,25.99,83,40,6.69,CC,1697381480
15,vilyuchinsk,52.9306,158.4028,7.18,90,100,0.58,RU,1697381480
16,blackmans bay,-43.0167,147.3167,7.07,82,90,2.36,AU,1697381481
17,edinburgh of the seven seas,-37.0676,-12.3116,14.64,95,100,16.94,SH,1697381481
18,dudinka,69.4058,86.1778,-3.51,87,43,4.47,RU,1697381481
19,krutinka,56.0055,71.5113,5.25,65,53,3.86,RU,1697381481
20,port-aux-francais,-49.35,70.2167,1.19,67,80,12.68,TF,1697381481
21,sherwood,34.8151,-92.2243,15.57,73,75,4.63,US,1697381481
22,bredasdorp,-34.5322,20.0403,18.56,72,0,6.94,ZA,1697381482
23,tazovsky,67.4667,78.7,1.32,99,100,1.61,RU,1697381482
24,hawaiian paradise park,19.5933,-154.9731,22.24,92,40,3.09,US,1697381482
25,waitangi,-43.9535,-176.5597,13.79,84,49,7.6,NZ,1697381482
26,isafjordur,66.0755,-23.124,4.02,93,100,0.0,IS,1697381482
27,alibag,18.6411,72.8792,31.04,81,5,1.94,IN,1697381482
28,bilibino,68.0546,166.4372,-10.58,99,94,0.43,RU,1697381483
29,carutapera,-1.195,-46.02,32.35,50,41,5.13,BR,1697381199
30,thompson,55.7435,-97.8558,-0.91,100,40,0.0,CA,1697381483
31,adamstown,-25.066,-130.1015,21.16,84,0,1.83,PN,1697381483
32,puerto natales,-51.7236,-72.4875,11.25,50,20,10.29,CL,1697381483
33,lakes by the bay,25.5723,-80.3253,30.01,74,0,3.6,US,1697381483
34,albany,42.6001,-73.9662,12.25,66,45,1.34,US,1697381279
35,papatowai,-46.5619,169.4708,5.2,80,47,7.49,NZ,1697381484
36,puerto ayora,-0.7393,-90.3518,27.98,91,100,3.13,EC,1697381484
37,ilulissat,69.2167,-51.1,-4.99,86,100,7.2,GL,1697381484
38,misratah,32.3754,15.0925,25.15,52,0,4.92,LY,1697381484
39,sassandra,4.95,-6.0833,26.77,82,100,4.24,CI,1697381484
40,massawa,15.6097,39.45,32.9,52,1,3.39,ER,1697381484
41,punta arenas,-53.15,-70.9167,9.06,57,20,16.46,CL,1697381485
42,attnang-puchheim,48.0112,13.715,8.42,55,99,4.75,AT,1697381485
43,itaituba,-4.2761,-55.9836,29.09,74,20,1.8,BR,1697381485
44,svetlyy,54.675,20.1347,11.17,66,95,11.43,RU,1697381485
45,wynyard,-41.0,145.7167,6.09,95,55,2.24,AU,1697381485
46,yanbu,24.0891,38.0637,35.02,46,20,9.26,SA,1697381486
47,port mathurin,-19.6833,63.4167,23.47,80,39,5.01,MU,1697381486
48,ust-nera,64.5667,143.2,-16.55,99,78,1.79,RU,1697381486
49,dean funes,-30.4204,-64.3498,26.73,23,2,5.66,AR,1697381486
50,grytviken,-54.2811,-36.5092,-0.93,95,99,4.06,GS,1697381486
51,tura,25.5198,90.2201,21.22,82,0,1.34,IN,1697381487
52,tual,-5.6667,132.75,27.01,87,93,8.02,ID,1697381487
53,ushuaia,-54.8,-68.3,6.81,61,75,11.32,AR,1697381246
54,cidreira,-30.1811,-50.2056,19.66,76,24,8.36,BR,1697381487
55,laguna,38.421,-121.4238,17.75,89,0,0.0,US,1697381487
56,challapata,-18.9,-66.7667,18.16,23,99,3.44,BO,1697381487
57,la sarre,48.8002,-79.1996,7.22,80,100,6.27,CA,1697381462
58,tiksi,71.6872,128.8694,-11.05,90,100,5.69,RU,1697381488
59,chinautla,14.7083,-90.4994,21.59,87,75,4.12,GT,1697381488
60,nogliki,51.8333,143.1667,9.08,84,100,3.13,RU,1697381488
61,ribeira grande,38.5167,-28.7,23.22,94,75,17.43,PT,1697381488
62,saipan,15.1355,145.701,26.39,89,0,2.06,MP,1697381488
63,hammerfest,70.6634,23.6821,3.25,87,75,10.29,NO,1697381489
64,tauranga,-37.6861,176.1667,13.86,80,29,2.68,NZ,1697381489
65,kusa,55.3383,59.4406,6.43,84,100,5.41,RU,1697381489
66,queenstown,-31.8976,26.8753,15.46,65,33,9.35,ZA,1697381489
67,neelankarai,12.9455,80.2575,28.91,89,40,2.57,IN,1697381489
68,badger,64.8,-147.5333,-0.01,95,100,0.0,US,1697381489
69,iskateley,67.6803,53.1512,0.57,87,100,8.94,RU,1697381490
70,codrington,-38.2667,141.9667,11.68,90,94,7.55,AU,1697381490
71,kota,25.1833,75.8333,28.91,35,65,2.5,IN,1697381490
72,petropavlovsk-kamchatsky,53.0452,158.6483,6.36,88,75,2.24,RU,1697381490
73,contamana,-7.3333,-75.0167,34.66,42,92,0.56,PE,1697381490
74,avarua,-21.2078,-159.775,22.03,73,75,3.6,CK,1697381490
75,cuauhtemoc,28.4167,-106.8667,16.94,73,5,2.38,MX,1697381270
76,qaqortoq,60.7167,-46.0333,4.59,79,97,1.9,GL,1697381491
77,yellowknife,62.456,-114.3525,7.29,98,20,4.63,CA,1697381491
78,kichmengskiy gorodok,59.9816,45.7854,11.64,94,100,4.47,RU,1697381491
79,yaren,-0.5472,166.916,28.71,74,100,3.24,NR,1697381491
80,hamilton,39.1834,-84.5333,12.03,82,100,5.66,US,1697381491
81,kudahuvadhoo,2.6708,72.8944,28.07,73,97,5.02,MV,1697381492
82,pico truncado,-46.7949,-67.9573,13.76,28,0,7.3,AR,1697381492
83,haiku-pauwela,20.9219,-156.3051,23.36,83,0,0.0,US,1697381492
84,kingston,17.997,-76.7936,32.53,67,20,2.06,JM,1697381492
85,parintins,-2.6283,-56.7358,39.53,27,38,2.1,BR,1697381492
86,udachny,66.4167,112.4,-5.86,85,71,2.49,RU,1697381492
87,mount gambier,-37.8333,140.7667,10.84,96,68,5.5,AU,1697381493
88,port-vila,-17.7338,168.3219,23.78,100,100,3.6,VU,1697381493
89,luderitz,-26.6481,15.1594,17.79,67,3,3.94,NA,1697381493
90,richards bay,-28.783,32.0377,21.27,69,33,5.18,ZA,1697381493
91,san patricio,28.017,-97.5169,19.95,43,0,7.24,US,1697381493
92,santarem,-2.4431,-54.7083,31.07,70,20,6.69,BR,1697381493
93,deming,32.2687,-107.7586,12.94,47,0,3.09,US,1697381494
94,altamira,-3.2033,-52.2064,32.05,62,75,3.6,BR,1697381494
95,portland,45.5234,-122.6762,14.17,93,75,3.13,US,1697381280
96,toliara,-23.35,43.6667,24.04,76,59,4.76,MG,1697381494
97,invercargill,-46.4,168.35,5.01,87,79,4.47,NZ,1697381494
98,constantia,44.1833,28.65,21.5,76,1,8.42,RO,1697381494
99,bozoum,6.3193,16.3799,22.89,84,100,1.35,CF,1697381495
100,dwarka,22.2394,68.9678,27.6,69,4,3.98,IN,1697381495
101,pudozh,61.8099,36.5345,7.75,82,69,5.81,RU,1697381495
102,kailua-kona,19.6406,-155.9956,24.72,79,0,2.68,US,1697381484
103,sao joao de pirabas,-0.7747,-47.1772,31.53,57,13,5.3,BR,1697381495
104,galesong,-5.3166,119.3661,27.01,48,35,4.7,ID,1697381496
105,pisco,-13.7,-76.2167,20.57,83,11,3.09,PE,1697381496
106,peniche,39.3558,-9.3811,23.49,92,98,6.9,PT,1697381496
107,amga,60.8953,131.9608,-3.9,53,8,3.13,RU,1697381496
108,narvik,68.4384,17.4272,3.54,94,100,3.92,NO,1697381497
109,crane,31.3974,-102.3501,13.5,38,0,6.23,US,1697381497
110,minas de marcona,-15.2119,-75.1103,20.0,58,12,5.06,PE,1697381498
111,tarawa,1.419,172.984,27.05,83,40,2.06,KI,1697381499
112,bikenibeu village,1.3673,173.1241,26.98,83,40,2.06,KI,1697381500
113,port lincoln,-34.7333,135.8667,12.95,80,14,7.75,AU,1697381500
114,sittwe,20.15,92.9,26.33,81,0,3.22,MM,1697381501
115,samraong,12.4526,105.5873,23.86,99,100,1.28,KH,1697381501
116,khadan khak,30.7477,67.7085,12.06,62,48,3.31,PK,1697381502
117,whitehorse,60.7161,-135.0538,4.45,86,20,2.24,CA,1697381502
118,stanley,54.868,-1.6985,11.4,67,20,5.66,GB,1697381503
119,masterton,-40.9597,175.6575,11.05,63,99,3.58,NZ,1697381503
120,afaahiti,-17.75,-149.2833,22.93,77,30,3.4,PF,1697381503
121,colonia,50.9333,6.95,12.25,73,75,3.6,DE,1697381401
122,bodo,67.28,14.405,5.02,88,75,12.35,NO,1697381505
123,yuzhno-kurilsk,44.0306,145.8556,14.1,69,100,3.99,RU,1697381505
124,chonchi,-42.6128,-73.8092,9.56,70,99,1.12,CL,1697381505
125,utrik,11.2278,169.8474,27.93,78,40,5.86,MH,1697381506
126,tonghae,37.5439,129.1069,14.06,76,0,3.97,KR,1697381506
127,shasta lake,40.6804,-122.3708,15.45,71,100,1.7,US,1697381507
128,baukau,51.5526,7.2042,12.17,73,51,2.24,DE,1697381507
129,klyuchi,52.2667,79.1667,6.5,80,64,2.65,RU,1697381507
130,jamestown,42.097,-79.2353,8.9,88,100,4.63,US,1697381428
131,anadyr,64.75,177.4833,1.28,86,75,2.0,RU,1697381508
132,oriximina,-1.7656,-55.8661,37.36,34,19,2.73,BR,1697381509
133,peace river,56.2501,-117.286,3.7,100,75,1.03,CA,1697381509
134,al mijlad,11.0333,27.7333,36.68,19,100,5.55,SD,1697381509
135,la asuncion,11.0333,-63.8628,30.85,70,31,5.14,VE,1697381509
136,la ronge,55.1001,-105.2842,5.14,81,20,5.66,CA,1697381511
137,olonkinbyen,70.9221,-8.7187,0.05,85,97,5.23,SJ,1697381511
138,tongouson,5.0214,120.1328,28.52,73,11,2.58,PH,1697381513
139,nova vicosa,-17.8919,-39.3719,28.05,60,40,4.42,BR,1697381514
140,sudislavl',57.8817,41.7083,11.16,84,100,4.16,RU,1697381514
141,tereze,43.9361,42.4434,12.78,48,5,1.72,RU,1697381515
142,epping,-33.7727,151.0818,17.4,78,79,1.56,AU,1697381515
143,turpan,42.9333,89.1667,19.54,32,16,1.47,CN,1697381516
144,georgetown,5.4112,100.3354,28.96,79,20,3.13,MY,1697381516
145,machico,32.7,-16.7667,29.84,81,40,4.12,PT,1697381517
146,badagry,6.4167,2.8833,28.93,70,98,3.76,NG,1697381517
147,nantucket,41.2835,-70.0995,13.89,83,100,10.8,US,1697381517
148,vila franca do campo,37.7167,-25.4333,23.23,99,100,10.31,PT,1697381518
149,lebu,-37.6167,-73.65,11.19,70,95,7.98,CL,1697381518
150,sao joao da barra,-21.6403,-41.0511,24.05,83,96,4.38,BR,1697381518
151,vilyuysk,63.7553,121.6247,-4.45,52,3,2.68,RU,1697381518
152,yurimaguas,-5.9,-76.0833,25.09,94,40,0.0,PE,1697381287
153,simanggang,1.2472,111.4528,26.99,94,100,0.51,MY,1697381518
154,steinbach,50.1667,8.5667,12.57,63,20,5.66,DE,1697381302
155,ancud,-41.8697,-73.8203,9.94,62,65,1.91,CL,1697381519
156,port alfred,-33.5906,26.891,19.54,85,100,1.79,ZA,1697381519
157,todos santos,23.45,-110.2167,26.48,82,1,1.81,MX,1697381519
158,banda aceh,5.5577,95.3222,26.48,83,100,5.62,ID,1697381519
159,zapolyarnyy,69.4154,30.8136,2.6,99,100,3.83,RU,1697381519
160,kholmsk,47.0511,142.0569,9.36,93,80,3.59,RU,1697381519
161,sao jose da coroa grande,-8.8978,-35.1478,28.0,57,23,6.26,BR,1697381520
162,barkhan,29.8977,69.5256,22.92,30,90,8.53,PK,1697381520
163,meizhou,24.2977,116.1072,19.14,78,17,0.89,CN,1697381520
164,scarborough,54.2797,-0.4044,13.14,64,30,0.45,GB,1697381520
165,undurkhaan,47.3194,110.6556,4.48,46,0,3.65,MN,1697381520
166,manicore,-5.8092,-61.3003,38.76,31,0,1.42,BR,1697381520
167,novyy urengoy,66.0833,76.6333,1.11,97,100,3.71,RU,1697381521
168,ambon,-3.6954,128.1814,25.08,94,20,2.57,ID,1697381521
169,pariaman,-0.619,100.12,27.03,87,71,1.46,ID,1697381521
170,polyarnyy,69.1989,33.4478,2.19,92,89,4.59,RU,1697381521
171,sao felix do xingu,-6.6447,-51.995,36.54,30,49,2.01,BR,1697381521
172,tondon,10.3667,-13.35,32.64,57,98,1.0,GN,1697381521
173,enewetak,11.3474,162.3373,28.26,77,45,4.82,MH,1697381522
174,dryden,49.7833,-92.7503,5.16,87,0,2.06,CA,1697381522
175,sabang,5.8933,95.3214,27.46,80,100,8.53,ID,1697381522
176,severobaykal'sk,55.65,109.3167,3.61,77,100,1.95,RU,1697381522
177,manokwari,-0.8667,134.0833,26.18,78,83,1.12,ID,1697381359
178,lengshuitan,26.4111,111.5956,19.75,57,0,0.97,CN,1697381523
179,francisco sa,-16.4758,-43.4883,30.08,32,10,5.91,BR,1697381523
180,sarny,51.338,26.6019,11.89,45,100,3.81,UA,1697381523
181,mary,37.0,62.5,14.95,20,2,4.26,TM,1697381523
182,bereeda,11.8704,51.0579,28.2,69,77,4.37,SO,1697381523
183,college,64.8569,-147.8028,0.04,93,100,0.0,US,1697381272
184,boende,-0.2167,20.8667,22.56,98,100,1.6,CD,1697381524
185,chibougamau,49.9168,-74.3659,7.79,87,100,5.66,CA,1697381239
186,mpika,-11.8343,31.4529,31.54,21,44,6.62,ZM,1697381524
187,remire-montjoly,4.9167,-52.2667,34.02,55,75,3.09,GF,1697381524
188,toamasina,-18.1667,49.3833,26.0,94,75,5.66,MG,1697381524
189,linxi,39.7,118.4333,13.6,22,96,3.4,CN,1697381524
190,mae chai,19.346,99.814,22.34,95,10,0.83,TH,1697381525
191,margaret river,-33.95,115.0667,17.95,54,95,4.31,AU,1697381525
192,ta`u,-14.2336,-169.5144,26.76,75,99,9.21,AS,1697381525
193,itupiranga,-5.1347,-49.3267,31.18,34,38,1.09,BR,1697381525
194,shorkot,31.9099,70.8774,29.68,27,100,3.1,PK,1697381525
195,mana,5.6592,-53.7767,31.96,57,100,4.98,GF,1697381526
196,tartagal,-22.5164,-63.8013,33.54,23,45,2.33,AR,1697381430
197,rockland,41.1668,-74.0496,13.21,77,34,5.03,US,1697381526
198,hermanus,-34.4187,19.2345,18.99,67,0,8.9,ZA,1697381526
199,olyokminsk,60.3736,120.4264,-2.23,84,78,0.45,RU,1697381526
200,gizo,-8.103,156.8419,27.23,81,100,3.0,SB,1697381527
201,sarina,-21.4333,149.2167,20.7,1,4,2.51,AU,1697381527
202,bima,-8.4667,118.7167,24.77,89,54,1.79,ID,1697381527
203,glace bay,46.1969,-59.957,14.88,68,40,5.36,CA,1697381527
204,st. john's,47.5649,-52.7093,15.15,83,75,6.17,CA,1697381508
205,acapulco de juarez,16.8634,-99.8901,27.9,83,100,1.54,MX,1697381529
206,aasiaat,68.7098,-52.8699,-2.19,66,100,8.22,GL,1697381529
207,carnarvon,-24.8667,113.6333,25.55,53,49,5.55,AU,1697381530
208,conde,-7.2597,-34.9075,28.7,58,20,9.26,BR,1697381530
209,osmaniye,37.0742,36.2478,18.02,85,65,1.15,TR,1697381530
210,itoigawa,37.0333,137.85,15.45,86,42,4.39,JP,1697381530
211,nova sintra,14.8667,-24.7167,25.31,75,99,2.35,CV,1697381530
212,port hedland,-20.3167,118.5667,24.03,88,3,2.57,AU,1697381530
213,tamanrasset,22.785,5.5228,28.95,18,40,2.06,DZ,1697381530
214,seeb,23.6703,58.1891,31.05,66,8,5.66,OM,1697381531
215,howrah,22.5892,88.3103,29.0,70,20,0.0,IN,1697381531
216,ataq,14.5377,46.8319,25.64,49,5,4.72,YE,1697381531
217,mabaruma,8.2,-59.7833,33.67,52,43,2.97,GY,1697381531
218,hithadhoo,-0.6,73.0833,27.49,78,99,7.17,MV,1697381531
219,christchurch,-43.5333,172.6333,9.11,64,4,2.06,NZ,1697381501
220,mujiayingzi,42.1167,118.7833,5.92,32,0,1.35,CN,1697381532
221,klaksvik,62.2266,-6.589,7.51,71,97,4.21,FO,1697381532
222,armacao de buzios,-22.7469,-41.8817,25.09,84,99,5.66,BR,1697381532
223,ketchikan,55.3422,-131.6461,11.99,100,100,1.54,US,1697381532
224,persianovka,47.5297,39.4183,20.94,29,0,2.75,RU,1697381532
225,barreirinha,-2.7933,-57.07,38.54,29,41,1.73,BR,1697381532
226,san pedro de ycuamandiyu,-24.0917,-57.0764,36.93,33,95,3.85,PY,1697381533
227,kidatu,-7.6992,36.9572,32.68,42,62,3.71,TZ,1697381533
228,arkhangel'sk,64.5401,40.5433,7.29,93,79,5.99,RU,1697381533
229,rio preto da eva,-2.6994,-59.6997,38.27,29,46,2.52,BR,1697381533
230,sonoita,31.85,-112.8333,25.44,23,0,2.36,MX,1697381533
231,sitka,57.0531,-135.33,10.94,87,100,0.0,US,1697381533
232,walvis bay,-22.9575,14.5053,22.53,46,0,9.26,NA,1697381534
233,camocim,-2.9022,-40.8411,33.29,51,53,6.19,BR,1697381534
234,seven pagodas,12.6264,80.1722,28.92,80,7,3.71,IN,1697381534
235,pasighat,28.0667,95.3333,21.65,84,31,1.83,IN,1697381534
236,nafada,11.0956,11.3327,38.57,16,96,2.18,NG,1697381534
237,talnakh,69.4865,88.3972,-6.55,87,100,1.01,RU,1697381534
238,fortuna,40.5982,-124.1573,11.86,95,0,1.34,US,1697381535
239,nar'yan-mar,67.6713,53.087,0.62,87,100,8.94,RU,1697381535
240,oroqen zizhiqi,50.5667,123.7167,2.46,41,1,5.09,CN,1697381535
241,frenchville,-23.3442,150.5507,20.52,83,40,3.6,AU,1697381535
242,hilo,19.7297,-155.09,22.36,83,40,3.09,US,1697381282
243,kapuskasing,49.4169,-82.4331,4.05,93,100,5.66,CA,1697381536
244,salalah,17.0151,54.0924,28.05,78,40,3.6,OM,1697381536
245,yeppoon,-23.1333,150.7333,20.88,88,5,4.22,AU,1697381536
246,isangel,-19.55,169.2667,23.28,86,99,5.86,VU,1697381536
247,kaa-khem,51.6833,94.7333,6.34,85,100,7.29,RU,1697381536
248,semnan,35.5729,53.3971,20.18,38,5,1.43,IR,1697381536
249,jayapura,-2.5333,140.7,25.66,89,79,1.86,ID,1697381537
250,vadso,70.0744,29.7487,3.49,87,75,11.83,NO,1697381537
251,mar del plata,-38.0023,-57.5575,20.85,65,0,6.69,AR,1697381537
252,takoradi,4.8845,-1.7554,27.57,78,78,5.13,GH,1697381537
253,weno,7.4515,151.8468,27.97,83,100,3.6,FM,1697381537
254,preobrazheniye,42.9019,133.9064,8.55,54,7,5.46,RU,1697381537
255,vikhorevka,56.1201,101.1636,8.73,53,100,1.52,RU,1697381537
256,santa margherita ligure,44.3346,9.212,24.91,72,69,2.08,IT,1697381538
257,mwene-ditu,-7.0,23.45,25.45,59,88,2.29,CD,1697381538
258,bonito,-21.1211,-56.4819,38.28,28,3,3.34,BR,1697381538
259,saint-joseph,-21.3667,55.6167,24.21,82,27,1.34,RE,1697381538
260,dampit,-8.2116,112.7493,21.61,88,8,2.5,ID,1697381538
261,tarp,54.6667,9.4,8.88,73,88,7.83,DE,1697381538
262,namibe,-15.1961,12.1522,21.52,65,15,6.1,AO,1697381302
263,kalaleh,37.3807,55.4916,20.2,60,0,2.06,IR,1697381539
264,bir el ater,34.7449,8.0602,25.02,15,0,4.65,DZ,1697381539
265,la'ie,21.6477,-157.9253,24.14,86,96,0.45,US,1697381539
266,arraial do cabo,-22.9661,-42.0278,24.98,73,75,10.29,BR,1697381423
267,la junta,37.985,-103.5438,1.16,75,0,2.06,US,1697381539
268,ampara,7.2833,81.6667,25.73,87,86,1.63,LK,1697381540
269,kerouane,9.2667,-9.0167,31.57,52,63,1.04,GN,1697381540
270,fort leonard wood,37.7057,-92.1572,10.41,77,100,3.6,US,1697381540
271,taulaga,-11.0553,-171.0883,27.85,71,82,9.46,AS,1697381540
272,lensk,60.7253,114.9278,2.62,72,100,2.24,RU,1697381540
273,ixtapa,20.7,-105.2,27.9,89,75,1.54,MX,1697381540
274,sodankyla,67.4167,26.6,0.68,99,100,4.55,FI,1697381540
275,nuuk,64.1835,-51.7216,0.34,64,40,4.63,GL,1697381541
276,monterey,36.2505,-121.2516,14.4,59,6,0.65,US,1697381445
277,laurel,39.0993,-76.8483,14.77,75,0,6.17,US,1697381437
278,sabha,27.0377,14.4283,29.71,15,0,2.46,LY,1697381541
279,norfolk,42.1668,-71.2495,13.27,72,0,4.12,US,1697381541
280,antsiranana,-12.2787,49.2917,27.42,74,20,3.09,MG,1697381541
281,buka,40.8108,69.1986,13.05,31,67,1.89,UZ,1697381541
282,georgiyevka,43.0369,74.7114,7.02,81,56,1.0,KZ,1697381542
283,sumenep,-7.0167,113.8667,27.93,75,36,5.89,ID,1697381542
284,puerto baquerizo moreno,-0.9,-89.6,25.55,78,75,5.14,EC,1697381542
285,el bolson,-41.9667,-71.5167,9.68,60,44,2.54,AR,1697381542
286,lompoc,34.6391,-120.4579,22.66,100,0,2.06,US,1697381542
287,khandyga,62.6667,135.6,-17.76,99,69,1.43,RU,1697381542
288,urzhar,47.093,81.6294,5.85,80,90,1.86,KZ,1697381543
289,moyale,3.5167,39.0584,19.89,94,100,7.5,KE,1697381543
290,muroto-misakicho,33.2833,134.15,20.54,61,0,4.49,JP,1697381543
291,katsuura,35.1333,140.3,18.26,79,0,2.12,JP,1697381543
292,nemuro,43.3236,145.575,13.95,72,100,2.06,JP,1697381543
293,tucurui,-3.7661,-49.6725,37.42,33,49,2.56,BR,1697381543
294,phalaborwa,-23.943,31.1411,23.6,31,99,3.84,ZA,1697381544
295,tokar,18.4254,37.729,31.11,64,56,6.39,SD,1697381544
296,usoke,-5.1667,32.35,32.55,24,82,3.41,TZ,1697381544
297,berdigestyakh,62.0989,126.6992,-9.28,91,11,0.89,RU,1697381544
298,guarapari,-20.6667,-40.4975,22.72,94,100,2.48,BR,1697381437
299,labrador city,52.9463,-66.9114,4.95,93,100,7.72,CA,1697381545
300,fort-shevchenko,44.5086,50.263,15.29,55,0,3.99,KZ,1697381545
301,shamva,-17.3116,31.5756,32.96,29,79,6.1,ZW,1697381545
302,balabac,7.9868,117.0645,27.53,82,100,4.62,PH,1697381546
303,daru,-9.0763,143.2092,25.22,87,100,6.36,PG,1697381547
304,roma,43.2128,-75.4557,11.99,73,20,4.47,US,1697381266
305,mahibadhoo,3.7833,72.9667,28.03,72,60,5.01,MV,1697381548
306,acarau,-2.8856,-40.12,32.11,53,49,8.9,BR,1697381548
307,cockburn town,21.4612,-71.1419,28.59,73,75,2.36,TC,1697381548
308,dothan,31.2232,-85.3905,17.27,71,20,5.66,US,1697381516
309,akureyri,65.6835,-18.0878,3.96,87,75,1.54,IS,1697381465
310,changyon,38.2508,125.0961,13.15,46,0,5.42,KP,1697381548
311,san luis de la loma,17.2706,-100.8939,27.55,83,97,0.93,MX,1697381549
312,kittila,67.6647,24.8936,1.08,93,100,7.72,FI,1697381549
313,hotan,37.0997,79.9269,17.4,19,94,1.97,CN,1697381549
314,izluchinsk,60.9794,76.9242,4.01,89,98,4.24,RU,1697381549
315,diu,20.7141,70.9822,26.79,73,2,3.86,IN,1697381549
316,boquira,-12.8231,-42.7306,34.1,24,45,4.67,BR,1697381549
317,feodosiya,45.0333,35.3833,16.66,71,13,3.89,UA,1697381462
318,melfort,52.8667,-104.6177,1.07,80,0,3.6,CA,1697381550
319,qurayyat,31.3318,37.3428,26.1,34,40,9.26,SA,1697381550
320,yayva,59.3303,57.2641,10.65,96,100,4.51,RU,1697381550
321,susuman,62.7833,148.1667,-9.45,83,100,0.89,RU,1697381550
322,asuncion nochixtlan,17.4667,-97.2333,16.08,77,100,3.34,MX,1697381550
323,kodiak,57.79,-152.4072,5.73,87,100,0.0,US,1697381550
324,new norfolk,-42.7826,147.0587,7.72,90,99,1.12,AU,1697381551
325,darwin,-12.4611,130.8418,28.99,74,20,2.57,AU,1697381407
326,saint-francois,46.4154,3.9054,14.69,44,0,3.6,FR,1697381551
327,barika,35.389,5.3658,27.71,21,0,2.97,DZ,1697381551
328,sao sepe,-30.1606,-53.5653,22.13,71,38,3.83,BR,1697381551
329,sanya,18.2431,109.505,27.09,74,75,3.0,CN,1697381551
330,novodvinsk,64.4165,40.8122,7.1,93,87,5.86,RU,1697381552
331,ilheus,-14.7889,-39.0494,28.9,65,20,6.17,BR,1697381476
332,el abiodh sidi cheikh,32.893,0.5484,25.71,24,3,2.66,DZ,1697381552
333,chinde,26.8418,88.0763,15.16,83,20,1.88,NP,1697381552
334,mahina,-17.5065,-149.489,23.87,73,40,0.0,PF,1697381552
335,east london,-33.0153,27.9116,19.52,77,100,5.66,ZA,1697381552
336,pontes e lacerda,-15.2261,-59.3353,42.4,21,25,1.14,BR,1697381479
337,xilin hot,43.9667,116.0333,3.13,34,0,1.15,CN,1697381553
338,midvagur,62.0511,-7.1939,7.46,76,100,3.09,FO,1697381553
339,merizo village,13.2658,144.6691,26.31,96,95,1.08,GU,1697381553
340,fale old settlement,-9.3852,-171.2468,28.46,73,93,9.54,TK,1697381553
341,hafar al-batin,28.4328,45.9708,39.32,17,0,3.09,SA,1697381553
342,port blair,11.6667,92.75,27.73,79,100,1.57,IN,1697381553
343,anzhero-sudzhensk,56.081,86.0285,5.29,88,100,2.45,RU,1697381554
344,zhangye,38.9342,100.4517,12.19,19,0,0.39,CN,1697381554
345,hobyo,5.3505,48.5268,28.2,75,58,4.71,SO,1697381554
346,mundwa,27.0667,73.8167,28.91,31,66,4.51,IN,1697381554
347,skeldon,5.8833,-57.1333,33.16,51,40,3.5,GY,1697381554
348,urucara,-2.5364,-57.76,38.43,29,46,2.12,BR,1697381554
349,jumla,29.2747,82.1838,10.12,88,48,1.12,NP,1697381555
350,shimanovsk,52.0,127.7,-1.46,57,84,8.16,RU,1697381555
351,ribadesella,43.4614,-5.0596,18.86,85,100,4.62,ES,1697381555
352,korla,41.7597,86.1469,17.68,19,19,3.94,CN,1697381555
353,kanpur,26.4667,80.35,28.49,38,24,1.31,IN,1697381555
354,marquelia,16.5833,-98.8167,27.71,78,97,1.22,MX,1697381556
355,msanga,-6.05,36.0333,32.69,29,77,5.48,TZ,1697381556
356,tsiombe,-25.3,45.4833,23.56,62,94,3.81,MG,1697381556
357,kalmunai,7.4167,81.8167,26.79,80,67,1.49,LK,1697381556
358,sterling,39.0062,-77.4286,14.56,74,20,7.2,US,1697381488
359,sanawad,22.1833,76.0667,27.82,42,13,2.35,IN,1697381556
360,aykhal,66.0,111.5,-7.18,85,100,2.24,RU,1697381556
361,ola,59.5833,151.2833,1.34,69,100,2.3,RU,1697381557
362,rio grande,-32.035,-52.0986,22.06,78,56,8.35,BR,1697381557
363,uturoa,-16.7333,-151.4333,25.43,75,8,4.63,PF,1697381557
364,villa dolores,-31.9459,-65.1896,28.43,19,1,5.45,AR,1697381557
365,dimbokro,6.6451,-4.7048,29.52,73,99,2.04,CI,1697381557
366,rincon,32.296,-81.2354,19.41,67,0,5.14,US,1697381557
367,mogadishu,2.0371,45.3438,27.93,89,75,4.63,SO,1697381558
368,mwinilunga,-11.7358,24.4293,19.09,89,98,5.45,ZM,1697381558
369,mirnyy,62.5353,113.9611,-2.09,100,100,1.79,RU,1697381558
370,gidam,18.9833,81.4,23.72,62,68,0.67,IN,1697381558
371,cao bang,22.6667,106.25,20.4,82,21,0.96,VN,1697381558
372,nabire,-3.3667,135.4833,24.79,90,78,1.38,ID,1697381558
373,manismata,-2.4667,111.0333,25.72,87,55,1.16,ID,1697381559
374,touros,-5.1989,-35.4608,29.85,54,100,8.68,BR,1697381559
375,yelizovo,53.1873,158.3805,7.11,100,75,1.0,RU,1697381559
376,troitsko-pechorsk,62.7084,56.1964,2.05,96,100,4.47,RU,1697381559
377,havana,23.133,-82.383,28.24,83,20,2.57,CU,1697381559
378,san jose del cabo,23.0589,-109.6977,28.74,78,0,1.54,MX,1697381559
379,santiago de cao,-7.9589,-79.2392,20.07,83,75,3.6,PE,1697381559
380,wailua homesteads,22.0669,-159.378,22.64,82,100,1.54,US,1697381560
381,san julian,21.0167,-102.1667,17.76,67,99,2.53,MX,1697381560
382,ivrindi,39.5839,27.4864,25.92,45,0,2.31,TR,1697381560
383,north tamworth,-31.0778,150.9261,16.06,41,0,0.0,AU,1697381560
384,thunder bay,48.4001,-89.3168,5.99,87,75,2.57,CA,1697381560
385,palikir - national government center,6.9248,158.1611,24.41,88,100,1.54,FM,1697381561
386,mount isa,-20.7333,139.5,21.87,17,0,3.6,AU,1697381561
387,emirdag,39.0197,31.15,16.31,55,80,3.82,TR,1697381561
388,tezu,27.9167,96.1667,21.39,72,19,1.58,IN,1697381561
389,bulnes,-36.7423,-72.2985,9.42,58,2,3.53,CL,1697381561
390,kerikeri,-35.2268,173.9474,9.95,91,25,1.46,NZ,1697381561
391,acajutla,13.5928,-89.8275,28.87,74,49,1.12,SV,1697381561
392,tolanaro,-25.0319,46.9987,23.04,88,75,4.12,MG,1697381562
393,fontanelas,38.8472,-9.4372,23.17,92,40,4.63,PT,1697381562
394,mikhaylovskoye,51.8239,79.7172,7.44,84,73,2.85,RU,1697381562
395,tiassale,5.8983,-4.8283,27.74,82,100,1.53,CI,1697381562
396,harstad,68.799,16.5293,2.67,97,100,19.67,NO,1697381562
397,adrar,20.5022,-10.0711,35.25,9,1,6.77,MR,1697381563
398,hakha,22.65,93.6167,13.15,95,7,0.45,MM,1697381563
399,dapa,9.7594,126.0531,26.86,80,53,0.9,PH,1697381563
400,regente feijo,-22.2214,-51.3028,28.6,54,0,4.12,BR,1697381563
401,aberdeen,57.1437,-2.0981,9.55,79,75,6.69,GB,1697381374
402,kamennogorsk,60.9545,29.1339,5.31,78,91,5.52,RU,1697381563
403,antigonish,45.6169,-61.9986,14.59,71,27,1.79,CA,1697381564
404,island harbour,50.724,-1.2758,12.32,54,77,2.68,GB,1697381564
405,sinabang,2.4803,96.3801,25.87,85,94,2.92,ID,1697381564
406,kanigiri,15.4,79.5167,27.52,69,53,3.16,IN,1697381564
407,ilhabela,-23.7781,-45.3581,23.06,81,98,2.33,BR,1697381513
408,kalabo,-14.97,22.6814,26.04,48,100,2.27,ZM,1697381565
409,aginskoye,51.1,114.53,2.08,50,29,1.75,RU,1697381565
410,ausa,41.9271,2.2497,21.62,75,93,4.92,ES,1697381565
411,az zawr,29.4425,48.2747,33.9,54,0,4.18,KW,1697381565
412,ascension,30.2169,-90.9001,18.33,70,0,2.57,US,1697381565
413,pekan,3.4836,103.3996,27.06,85,94,1.79,MY,1697381566
414,bartica,6.4,-58.6167,32.18,76,56,2.05,GY,1697381568
415,mascara,35.3966,0.1403,27.51,32,9,3.9,DZ,1697381568
416,alupka,44.4167,34.05,18.58,82,73,0.6,UA,1697381569
417,rio claro,-22.4114,-47.5614,30.78,61,22,2.14,BR,1697381354
418,lihue,21.9789,-159.3672,22.98,83,100,1.54,US,1697381570
419,greymouth,-42.4667,171.2,9.08,68,86,4.66,NZ,1697381360
420,santa lucia,27.9117,-15.5407,24.62,51,0,4.12,ES,1697381571
421,mongo,12.1844,18.693,36.42,24,99,2.99,TD,1697381571
422,sola,-13.8833,167.55,26.19,83,51,6.42,VU,1697381572
423,kawalu,-7.3817,108.2082,22.4,94,98,0.44,ID,1697381572
424,kismayo,-0.3582,42.5454,26.98,82,16,4.76,SO,1697381573
425,point pedro,9.8167,80.2333,27.57,79,87,3.92,LK,1697381573
426,uyskoye,54.3775,60.0047,8.7,79,100,4.67,RU,1697381574
427,aral,40.5156,81.2636,17.68,24,99,3.97,CN,1697381574
428,settat,33.0007,-7.6204,29.9,22,98,3.17,MA,1697381575
429,ponnani,10.767,75.9252,26.62,84,100,1.38,IN,1697381576
430,raigarh,21.9,83.4,24.53,60,0,1.18,IN,1697381576
431,fiambala,-27.6871,-67.6149,28.85,7,15,2.05,AR,1697381576
432,holualoa,19.6228,-155.9522,22.65,80,0,2.68,US,1697381567
433,laojunmiao,39.8333,97.7333,9.15,19,85,0.71,CN,1697381576
434,pokaran,26.9167,71.9167,31.34,25,12,4.41,IN,1697381576
435,bilohirsk,45.05,34.6,17.06,46,7,0.54,UA,1697381577
436,tobelo,1.7284,128.0095,26.61,85,23,2.68,ID,1697381577
437,pizarro,4.9533,-77.366,25.76,88,100,0.88,CO,1697381577
438,tazacorte,28.629,-17.9293,27.54,65,0,2.57,ES,1697381577
439,balaklava,44.5,33.6,18.54,46,18,2.38,UA,1697381577
440,khromtau,50.2503,58.4347,11.42,69,100,5.62,KZ,1697381577
441,karasuk,53.7377,78.0403,6.66,64,70,3.58,RU,1697381577
442,kalispell,48.1958,-114.3129,9.81,91,100,0.0,US,1697381350
443,tidjikja,18.5564,-11.4271,36.66,8,1,7.8,MR,1697381578
444,tabou,4.423,-7.3528,26.25,87,100,3.42,CI,1697381578
445,cabo san lucas,22.8909,-109.9124,28.75,69,0,0.45,MX,1697381578
446,swakopmund,-22.6833,14.5333,22.47,74,46,3.13,NA,1697381578
447,lesnikovo,55.2822,65.3175,10.44,70,100,4.87,RU,1697381578
448,santa fe do sul,-20.2111,-50.9258,35.13,37,0,4.83,BR,1697381579
449,salinopolis,-0.6136,-47.3561,30.49,65,12,5.99,BR,1697381579
450,rawson,-43.3002,-65.1023,17.52,37,49,5.19,AR,1697381339
451,novaya igirma,57.1334,103.9112,5.01,76,100,1.55,RU,1697381579
452,cambria,35.5641,-121.0808,14.99,61,3,1.75,US,1697381548
453,lander,42.833,-108.7307,11.33,72,0,0.0,US,1697381579
454,gornopravdinsk,60.05,69.9,4.65,76,100,2.29,RU,1697381579
455,sosnovo-ozerskoye,52.5249,111.5418,0.76,64,89,2.08,RU,1697381580
456,axim,4.8699,-2.2405,27.64,77,57,4.65,GH,1697381580
457,nadi,-17.8,177.4167,23.0,88,100,2.06,FJ,1697381580
458,harper,4.375,-7.7169,26.15,86,100,2.91,LR,1697381580
459,lorengau,-2.0226,147.2712,27.25,77,67,1.07,PG,1697381580
460,arno,60.1167,18.6333,8.77,54,22,6.49,SE,1697381580
461,falenki,58.3613,51.5946,10.74,84,100,6.18,RU,1697381580
462,alo,7.4178,6.7371,29.26,77,100,1.94,NG,1697381581
463,colares,38.7992,-9.4469,23.82,93,40,7.15,PT,1697381581
464,namtsy,62.7161,129.6658,-9.82,92,12,1.57,RU,1697381581
465,sunan,39.1983,125.69,10.19,39,0,4.25,KP,1697381581
466,la passe,45.5549,-0.8967,17.13,37,100,5.39,FR,1697381581
467,mbeya,-8.9,33.45,27.21,27,100,3.19,TZ,1697381581
468,kavaratti,10.5669,72.642,27.09,78,100,2.69,IN,1697381582
469,port elizabeth,-33.918,25.5701,20.16,80,40,5.36,ZA,1697381582
470,lemvig,56.5486,8.3102,10.67,74,63,12.6,DK,1697381582
471,ar ruways,24.1103,52.7306,29.85,61,0,2.93,AE,1697381582
472,geraldton,-28.7667,114.6,16.23,63,22,2.06,AU,1697381582
473,kavieng,-2.5744,150.7967,26.42,81,46,0.79,PG,1697381583
474,vernon,50.2581,-119.2691,10.25,89,99,4.12,CA,1697381583
475,pemba,-12.974,40.5178,29.39,79,20,7.2,MZ,1697381583
476,coquimbo,-29.9533,-71.3436,13.85,88,100,3.09,CL,1697381583
477,anaconda,46.1285,-112.9423,3.55,64,79,1.99,US,1697381583
478,santa ana de yacuma,-13.75,-65.4333,32.97,46,56,2.57,BO,1697381583
479,urazovo,50.0836,38.0395,15.34,39,4,3.25,RU,1697381583
480,alofi,-19.0595,-169.9187,21.94,83,13,2.57,NU,1697381584
481,bouar,5.934,15.596,21.94,84,100,1.64,CF,1697381584
482,kourou,5.1552,-52.6478,34.03,55,100,5.08,GF,1697381584
483,okhotsk,59.3833,143.3,2.29,76,100,4.63,RU,1697381584
484,bardai,11.65,7.2333,33.88,20,99,2.21,NG,1697381584
485,rongelap,11.1635,166.8941,28.18,78,77,6.48,MH,1697381585
486,nadym,65.5333,72.5167,1.19,94,100,3.87,RU,1697381585
487,samana,19.2056,-69.3369,29.98,79,20,2.06,DO,1697381585
488,fitchburg,42.5834,-71.8023,12.18,69,96,5.66,US,1697381585
489,san antonio de pale,-1.4014,5.6325,25.97,82,86,5.63,GQ,1697381585
490,zhigalovo,54.8097,105.1578,5.6,54,100,1.34,RU,1697381585
491,prince george,53.9166,-122.753,11.69,69,100,5.14,CA,1697381586
492,realeza,-25.7689,-53.5325,22.29,87,48,1.6,BR,1697381586
493,tarko-sale,64.9225,77.785,1.67,83,100,2.24,RU,1697381586
494,general jose de san martin,-26.5374,-59.3416,30.75,43,71,2.85,AR,1697381586
495,aljezur,37.3191,-8.8033,21.08,85,84,2.93,PT,1697381586
496,shimoda,34.6667,138.95,16.72,74,0,7.7,JP,1697381586
497,west lakes,-34.8767,138.4975,15.0,83,75,7.72,AU,1697381587
498,taoudenni,22.6783,-3.9836,36.79,10,2,4.66,ML,1697381587
499,bush,29.1482,31.1273,28.64,24,0,5.16,EG,1697381587
500,sarangani,5.4033,125.4636,28.31,78,5,1.79,PH,1697381587
501,el porvenir,13.7617,-87.3458,24.63,70,71,0.58,HN,1697381587
502,zhanaozen,43.3,52.8,14.98,29,0,6.44,KZ,1697381588
503,chapeco,-27.0964,-52.6183,23.86,73,0,3.09,BR,1697381588
504,baro,8.6,6.4167,33.71,49,78,1.48,NG,1697381588
505,upata,8.0086,-62.3989,31.82,51,29,3.18,VE,1697381588
506,ellsworth,44.5434,-68.4195,12.7,81,0,3.6,US,1697381588
507,peacehaven,50.7927,-0.0065,12.77,54,22,1.79,GB,1697381588
508,puerto quijarro,-17.7833,-57.7667,41.83,22,1,2.33,BO,1697381589
509,gwadar,25.1216,62.3254,27.13,82,0,3.86,PK,1697381360
510,menaka,15.9182,2.4022,39.42,10,11,3.91,ML,1697381589
511,alexandroupoli,40.8475,25.8744,23.51,73,0,4.12,GR,1697381589
512,pacific grove,36.6177,-121.9166,13.14,96,75,0.0,US,1697381511
513,colac,-38.3333,143.5833,10.09,97,100,5.53,AU,1697381590
514,puerto san jose,13.9256,-90.8244,27.92,80,12,1.29,GT,1697381590
515,cascais,38.6979,-9.4215,23.92,92,40,7.15,PT,1697381590
516,quellon,-43.1167,-73.6167,9.53,76,100,0.94,CL,1697381590
517,kananga,-5.8958,22.4178,28.18,55,100,1.14,CD,1697381590
518,shenjiamen,29.9576,122.298,20.97,67,72,4.11,CN,1697381590
519,mengcheng chengguanzhen,33.2661,116.566,19.47,39,0,1.37,CN,1697381591
520,esfarayen,37.0765,57.5101,13.81,43,1,1.64,IR,1697381591
521,eyl,7.9803,49.8164,27.88,77,47,5.64,SO,1697381591
522,margherita,27.2833,95.6833,21.24,97,1,1.19,IN,1697381591
523,lerwick,60.1545,-1.1494,6.0,65,100,7.36,GB,1697381591
524,mapastepec,15.4333,-92.9,28.33,80,100,0.36,MX,1697381591
525,sonari,27.0667,95.0333,21.66,95,0,1.01,IN,1697381592
526,cururupu,-1.8283,-44.8683,33.06,47,20,4.02,BR,1697381592
527,antofagasta,-23.65,-70.4,18.6,61,15,3.56,CL,1697381423
528,krasnopillya,50.7746,35.2597,17.02,66,97,3.53,UA,1697381592
529,zheleznogorsk-ilimskiy,56.5768,104.1217,5.76,61,100,3.58,RU,1697381592
530,teknaf,20.8624,92.3058,25.38,81,0,3.06,BD,1697381592
531,hadibu,12.65,54.0333,27.36,70,59,2.03,YE,1697381593
532,kukawa,12.9234,13.5606,36.17,19,96,4.64,NG,1697381593
533,tovarkovo,54.6762,35.9386,11.14,85,100,3.13,RU,1697381593
534,hami,42.8,93.45,14.26,43,5,1.9,CN,1697381593
535,mandalgovi,45.7625,106.2708,7.37,39,54,6.3,MN,1697381593
536,penonome,8.5167,-80.3667,27.49,86,100,0.45,PA,1697381594
537,gadzhiyevo,69.2551,33.3362,2.14,93,91,4.67,RU,1697381594
538,hochstadt an der aisch,49.7062,10.8133,11.76,61,47,1.79,DE,1697381594
539,lazaro cardenas,17.9583,-102.2,27.62,85,100,2.65,MX,1697381594
540,sisimiut,66.9395,-53.6735,-4.3,75,64,2.18,GL,1697381594
541,languyan,5.2618,120.0807,26.67,81,10,1.65,PH,1697381594
542,kantagi,43.5264,68.5775,9.96,36,78,4.2,KZ,1697381595
543,gewane,10.1664,40.6453,34.58,18,24,5.56,ET,1697381595
544,bubaque,11.2833,-15.8333,28.66,78,59,4.68,GW,1697381595
545,bang saphan,11.2126,99.5117,25.66,91,99,1.57,TH,1697381595
546,trinity beach,-16.7888,145.6968,21.94,78,28,0.51,AU,1697381596
547,tenosique,17.4833,-91.4333,27.71,82,47,0.41,MX,1697381596
548,urangan,-25.3,152.9,21.98,82,0,6.11,AU,1697381596
549,kamennomostskoye,43.7372,43.0514,14.73,55,2,1.77,RU,1697381596
550,pirallahi,40.4723,50.333,19.08,73,1,7.01,AZ,1697381597
551,mantua,45.1667,10.7833,25.34,68,100,9.04,IT,1697381597
552,al khawr,25.7667,51.3167,31.26,46,1,3.1,QA,1697381597
553,moses lake,47.1301,-119.2781,9.38,87,100,1.54,US,1697381417
554,orchard homes,46.8633,-114.0484,9.22,83,100,0.89,US,1697381597
555,puerto armuelles,8.2833,-82.8667,27.87,88,98,1.79,PA,1697381598
556,verkhnevilyuysk,63.4453,120.3167,-10.59,79,14,1.79,RU,1697381598
557,dunedin,-45.8742,170.5036,7.11,56,4,0.45,NZ,1697381598
558,hemsby,52.6971,1.6918,12.25,71,75,6.88,GB,1697381330
559,arish,31.1316,33.7984,27.1,50,0,5.14,EG,1697381598
560,aras-asan,8.8908,126.3033,25.51,89,59,1.66,PH,1697381598
561,almeirim,-1.5233,-52.5817,35.26,41,19,3.08,BR,1697381598
562,kudymkar,59.0173,54.656,10.32,91,100,5.39,RU,1697381599
563,sangolqui,-0.3341,-78.4522,17.27,51,64,1.62,EC,1697381599
564,oruro,-17.9833,-67.15,17.08,20,53,3.2,BO,1697381599
565,saldanha,-33.0117,17.9442,21.03,73,39,4.62,ZA,1697381599
566,mariehamn,60.0973,19.9348,8.79,57,75,3.6,AX,1697381599
567,broome,42.2506,-75.833,10.56,88,100,6.17,US,1697381599
568,krasnokamensk,50.0979,118.0369,1.16,34,0,1.31,RU,1697381600
569,porto novo,6.4965,2.6036,29.9,69,99,3.47,BJ,1697381570
570,pontianak,-0.0333,109.3333,25.99,94,75,0.0,ID,1697381600
571,ulaangom,49.9811,92.0667,7.0,58,98,0.52,MN,1697381600
572,ulsteinvik,62.3432,5.8487,9.31,77,100,5.36,NO,1697381600
573,ghazni,33.5536,68.4269,12.37,45,99,1.77,AF,1697381601
574,kyparissia,37.2511,21.6736,26.63,67,3,2.94,GR,1697381601
575,puerto berrio,6.4916,-74.4033,29.86,66,67,1.27,CO,1697381601
576,vorkuta,67.5,64.0,-1.39,85,100,2.8,RU,1697381601
577,rovaniemi,66.5,25.7167,0.67,100,100,5.14,FI,1697381601
578,guli,28.8833,120.0333,16.31,79,2,0.48,CN,1697381601
579,lamu,-2.2717,40.902,28.12,81,90,4.05,KE,1697381602
580,malango,-2.9627,119.9001,19.32,92,1,1.07,ID,1697381602
581,yinchuan,38.4681,106.2731,15.94,26,0,1.75,CN,1697381602
582,griffith,41.5284,-87.4237,10.26,92,100,6.17,US,1697381602
583,mugia,43.1041,-9.2179,17.87,91,100,3.82,ES,1697381602
